[

    {
      "city": "Targu Jiu",
      "name": "'Tudor Vladimirescu' College Targu Jiu",
      "description": "<h3 style='text-align:center'>'Tudor Vladimirescu' College Targu Jiu</h3>",
      "lat": 45.0372499,
      "lng": 23.27181,
      "icon": "./img/tudor_vladimirescu.jpeg"
    },
    {
      "city": "Targu Jiu",
      "name": "'Ecaterina Teodoroiu' College Targu Jiu",
      "description": "<h3 style='text-align:center'>'Ecaterina Teodoroiu' College Targu Jiu</h3>",
      "lat": 45.0281545,
      "lng": 23.2688944,
      "icon": "./img/ecaterina_teodoroiu.jpeg"
    },
    {
      "city": "Constanta",
      "name": "'Mircea cel Batran' College Constanta",
      "description": "<h3 style='text-align:center'>'Mircea cel Batran' College Constanta</h3>",
      "lat": 44.1810794,
      "lng": 28.6489567,
      "icon": "./img/Colegiul-National-Mircea-Cel-Batran-Constanta-logo.jpeg"
    },
    {
      "city": "Oradea",
      "name": "'Iuliu Maniu' College Oradea",
      "description": "<h3 style='text-align:center'>'Iuliu Maniu' College Oradea</h3>",
      "lat": 47.0541453,
      "lng": 21.9243337,
      "icon": "./img/iuliu-maniu.png"
    },
    {
      "city": "Arad",
      "name": "'Moise Nicoara' College Arad",
      "description": "<h3 style='text-align:center'>'Moise Nicoara' College Arad</h3>",
      "lat": 46.1708982,
      "lng": 21.3174864,
      "icon": "./img/Moise_Nicoara_National_College_-_facade.jpeg"
    },
    {
      "city": "Arad",
      "name": "'Preparandia' College Arad",
      "description": "<h3 style='text-align:center'>'Preparandia' College Arad</h3>",
      "lat": 46.1689116,
      "lng": 21.3186167,
      "icon": "./img/preparandia.png"
    },
    {
      "city": "Bistrita",
      "name": "'Andrei Muresanu' College Bistrita",
      "description": "<h3 style='text-align:center'>'Andrei Muresanu' College Bistrita</h3>",
      "lat": 47.132195,
      "lng": 24.4886178,
      "icon": "./img/andrei_muresanu.png"
    },
    {
      "city": "Lechinta",
      "name": "Tehnological High School Lechinta",
      "description": "<h3 style='text-align:center'>Tehnological High School Lechinta</h3>",
      "lat": 47.0222244,
      "lng": 24.2587395,
      "icon": "./img/lechinta.png"
    },
    {
      "city": "Ialoveni",
      "name": "'Petre Stefanuca' College Ialoveni",
      "description": "<h3 style='text-align:center'>'Petre Stefanuca' College Ialoveni</h3>",
      "lat": 46.9407619,
      "lng": 28.7740681,
      "icon": "./img/petre-stefanuca.jpeg"
    },
    {
      "city": "Iasi",
      "name": "'EuroEd' College Iasi",
      "description": "<h3 style='text-align:center'>'EuroEd' College Iasi</h3>",
      "lat": 47.1690265,
      "lng": 27.5711065,
      "icon": "./img/euroed.png"
    },
    {
      "city": "Oradea",
      "name": "'Emanuil Gojdu' College Oradea",
      "description": "<h3 style='text-align:center'><a href='https://andcov.github.io/biology_map_website/school_descriptions/cne_gojdu.html'>'Emanuil Gojdu' College Oradea</a></h3>",
      "lat": 47.0545768,
      "lng": 21.9355306,
      "icon": "./img/cnegojdu.png"
    }
]
